,City,Cloudiness,Country,Date,Humidity,Lat,Lng,Max Temp,Wind Speed
0,itarema,92,BR,1547170635,94,-2.92,-39.92,73.51,3.6
1,ushuaia,40,AR,1547168400,47,-54.81,-68.31,57.2,18.34
2,port elizabeth,1,US,1547168160,53,39.31,-74.98,33.98,14.99
3,mataura,92,NZ,1547170635,73,-46.19,168.86,55.78,20.83
4,puerto ayora,20,EC,1547164800,65,-0.74,-90.35,78.8,12.75
5,severo-kurilsk,0,RU,1547170636,100,50.68,156.12,19.51,2.82
6,neepawa,20,CA,1547168400,78,50.23,-99.46,8.6,4.7
7,mar del plata,0,AR,1547170637,46,-46.43,-67.52,62.75,18.03
8,cherskiy,0,RU,1547170637,53,68.75,161.3,0.61,8.3
9,darab,12,IR,1547170638,59,28.75,54.55,33.19,4.61
10,bluff,92,AU,1547170638,76,-23.58,149.07,80.17,10.42
11,namibe,0,AO,1547170639,100,-15.19,12.15,73.01,1.59
12,mecca,0,SA,1547170639,81,21.43,39.83,51.82,2.71
13,hermanus,0,ZA,1547170639,95,-34.42,19.24,49.21,4.16
14,valparaiso,90,US,1547169300,74,41.47,-87.06,28.4,3.94
15,acajutla,0,SV,1547167800,47,13.59,-89.83,77.0,8.05
16,barrow,0,AR,1547170641,80,-38.31,-60.23,48.08,2.71
17,magrath,20,CA,1547168400,52,49.42,-112.86,42.8,23.04
18,carnarvon,0,ZA,1547170641,56,-30.97,22.13,49.48,2.82
19,salalah,0,OM,1547167800,72,17.01,54.1,68.0,2.24
20,ipu,64,BR,1547170642,95,-4.32,-40.71,64.28,2.04
21,jaleswar,0,IN,1547170643,83,21.8,87.22,65.18,8.41
22,malanje,44,AO,1547170643,86,-9.54,16.35,65.9,5.28
23,punta arenas,0,CL,1547168400,62,-53.16,-70.91,55.4,24.16
24,jamestown,0,AU,1547170644,63,-33.21,138.6,84.13,7.85
25,guangyuan,0,CN,1547170644,57,32.43,105.86,36.56,2.71
26,longyearbyen,90,NO,1547167800,72,78.22,15.63,17.6,31.09
27,yellowknife,90,CA,1547169480,76,62.45,-114.38,-9.41,17.22
28,hilo,1,US,1547167980,60,19.71,-155.08,78.98,11.41
29,goreloye,88,RU,1547170647,87,52.92,41.5,14.83,11.32
30,sur,8,OM,1547170647,100,22.57,59.53,70.85,2.48
31,puerto carreno,0,CO,1547168400,62,6.19,-67.49,84.2,3.36
32,vaini,0,IN,1547164800,76,15.34,74.49,53.6,4.05
33,rikitea,44,PF,1547170649,99,-23.12,-134.97,79.72,16.46
34,saldanha,0,PT,1547170649,88,41.42,-6.55,21.98,5.61
35,linxia,0,CN,1547170650,29,35.6,103.21,22.61,5.73
36,fortuna,0,ES,1547168400,55,38.18,-1.13,37.4,4.7
37,cabo san lucas,40,MX,1547167860,83,22.89,-109.91,71.6,6.93
38,tuktoyaktuk,20,CA,1547168400,73,69.44,-133.03,-31.01,5.82
39,yinchuan,0,CN,1547170626,70,38.48,106.21,18.2,4.72
40,champerico,40,MX,1547167200,68,16.38,-93.6,69.8,11.41
41,busselton,0,AU,1547170652,97,-33.64,115.35,68.51,3.83
42,puerto escondido,20,MX,1547167500,69,15.86,-97.07,82.4,11.21
43,new norfolk,20,AU,1547168400,38,-42.78,147.06,73.4,6.93
44,poum,64,MK,1547170653,75,41.28,20.71,14.06,0.92
45,port alfred,64,ZA,1547170653,95,-33.59,26.89,65.77,6.06
46,kapaa,90,US,1547168640,66,22.08,-159.32,78.98,6.93
47,camacupa,36,AO,1547170654,88,-12.02,17.48,64.1,6.29
48,huanren,0,CN,1547170488,58,41.26,125.37,25.04,1.81
49,aboisso,44,CI,1547170654,92,5.47,-3.21,78.23,4.16
50,chokurdakh,32,RU,1547170654,0,70.62,147.9,-38.19,3.15
51,palmer,0,AU,1547168400,24,-34.85,139.16,82.4,10.29
52,fort nelson,40,CA,1547168400,83,58.81,-122.69,-11.21,2.24
53,cape town,40,ZA,1547168400,82,-33.93,18.42,62.6,6.93
54,taoudenni,0,ML,1547170656,60,22.68,-3.98,37.06,3.6
55,husavik,88,CA,1547170656,88,50.56,-96.99,11.54,7.74
56,yaan,0,NG,1547170656,88,7.38,8.57,68.69,3.6
57,nanakuli,90,US,1547168220,69,21.39,-158.15,80.06,8.05
58,pathein,8,MM,1547170657,71,16.78,94.73,77.74,4.5
59,pochutla,20,MX,1547167500,78,15.74,-96.47,82.4,9.75
60,touros,20,BR,1547168400,83,-5.2,-35.46,78.8,8.05
61,plastunovskaya,0,RU,1547168400,88,45.3,39.27,37.4,6.71
62,kondol,76,RU,1547170658,84,52.82,45.06,5.11,8.97
63,chuy,80,UY,1547170658,100,-33.69,-53.46,66.35,3.6
64,sitka,12,US,1547170659,54,37.17,-99.65,45.56,16.02
65,bredasdorp,0,ZA,1547168400,76,-34.53,20.04,55.4,1.12
66,mahebourg,75,MU,1547168400,88,-20.41,57.7,77.0,16.11
67,bambous virieux,75,MU,1547168400,88,-20.34,57.76,77.0,16.11
68,castro,32,CL,1547168400,71,-42.48,-73.76,51.8,4.7
69,nuuk,0,GL,1547167800,78,64.17,-51.74,15.8,11.41
70,yumen,0,CN,1547170662,68,40.29,97.04,10.06,10.42
71,hasaki,20,JP,1547168400,36,35.73,140.83,48.2,16.11
72,iqaluit,75,CA,1547168400,61,63.75,-68.52,-18.41,13.87
73,xai-xai,48,MZ,1547170663,80,-25.04,33.64,82.51,16.8
74,mayo,90,CA,1547168400,74,63.59,-135.9,-23.81,1.25
75,coquimbo,75,CL,1547168400,87,-29.95,-71.34,59.0,6.93
76,jacareacanga,92,BR,1547170664,99,-6.22,-57.76,71.66,3.27
77,college,1,US,1547168280,74,64.86,-147.8,-22.01,3.15
78,atuona,20,PF,1547170665,99,-9.8,-139.03,81.61,16.46
79,hobart,20,AU,1547168400,38,-42.88,147.33,73.4,6.93
80,perivolion,75,GR,1547169600,93,39.42,20.01,42.8,8.86
81,soubre,0,CI,1547170666,95,5.79,-6.61,74.23,4.27
82,kalmunai,76,LK,1547170666,97,7.42,81.82,75.8,7.18
83,buala,92,SB,1547170667,90,-8.15,159.59,83.86,3.15
84,butaritari,76,KI,1547170667,100,3.07,172.79,85.79,8.63
85,dunedin,0,NZ,1547170485,60,-45.87,170.5,62.03,15.46
86,muravlenko,12,RU,1547170668,30,63.79,74.5,-20.95,5.73
87,burnie,76,AU,1547170668,100,-41.05,145.91,62.98,14.12
88,springbok,0,ZA,1547170598,86,-29.67,17.88,42.46,2.59
89,flin flon,90,CA,1547164800,77,54.77,-101.88,3.2,5.82
90,saint-philippe,90,CA,1547168580,66,45.36,-73.48,14.54,19.46
91,hithadhoo,88,MV,1547170670,100,-0.6,73.08,80.98,2.93
92,arraial do cabo,0,BR,1547164800,83,-22.97,-42.02,77.0,18.34
93,cocobeach,75,GA,1547168400,83,1.01,9.58,82.4,6.93
94,cap malheureux,75,MU,1547168400,88,-19.98,57.61,77.0,16.11
95,pitimbu,20,BR,1547168400,88,-7.47,-34.81,77.0,4.7
96,klaksvik,56,FO,1547169600,100,62.23,-6.59,44.6,10.29
97,gorele,0,TR,1547169600,32,41.03,39.0,53.6,3.36
98,shamkhal,90,RU,1547168400,80,43.06,47.33,33.8,13.42
99,saskylakh,56,RU,1547170672,0,71.97,114.09,-40.75,3.15
100,kavaratti,0,IN,1547170494,100,10.57,72.64,81.43,8.19
101,san patricio,56,PY,1547170673,94,-26.98,-56.83,75.76,2.48
102,bilibino,8,RU,1547170673,53,68.06,166.44,-10.92,2.93
103,zile,75,TR,1547169600,86,40.3,35.89,26.6,3.94
104,xiongzhou,90,CN,1547168400,100,32.34,118.83,41.0,8.95
105,lima,75,PE,1547168400,83,-12.06,-77.04,75.2,6.93
106,casper,40,US,1547167980,64,42.87,-106.31,37.04,9.17
107,lebu,0,ET,1547164800,53,8.96,38.73,51.8,4.7
108,kodiak,90,US,1547168100,61,39.95,-94.76,35.06,8.05
109,cidreira,48,BR,1547170621,90,-30.17,-50.22,73.55,6.17
110,urussu,64,RU,1547170675,83,54.6,53.47,7.58,5.84
111,thompson,20,CA,1547168400,76,55.74,-97.86,-7.61,8.05
112,voh,24,NC,1547170676,95,-20.95,164.69,79.54,22.95
113,talnakh,36,RU,1547170676,46,69.49,88.39,-29.1,3.6
114,bozhou,80,CN,1547170676,100,33.86,115.78,37.96,4.16
115,erenhot,0,CN,1547170676,64,43.65,111.97,11.0,9.64
116,lesnoy,76,RU,1547170677,83,59.78,52.13,14.47,6.51
117,brownwood,90,US,1547169300,50,31.71,-98.99,53.6,11.41
118,padang,20,ID,1547168400,88,-0.92,100.36,80.6,2.24
119,guerrero negro,0,MX,1547170677,100,27.97,-114.04,52.09,4.61
120,akureyri,88,IS,1547170678,84,65.68,-18.09,15.64,1.7
121,ribeira grande,88,PT,1547170476,100,38.52,-28.7,59.69,29.33
122,albany,90,US,1547168100,59,42.65,-73.75,26.06,19.46
123,chulman,48,RU,1547170679,65,56.84,124.9,-5.97,3.6
124,el alto,75,BO,1547168400,75,-16.5,-68.19,46.4,6.93
125,xam nua,44,LA,1547170679,93,20.42,104.04,63.97,1.92
126,la libertad,44,PE,1547170680,100,-16.38,-71.56,32.11,1.7
127,lethem,68,GY,1547170681,65,3.38,-59.8,79.81,13.11
128,balkhash,76,KZ,1547170681,94,46.84,74.98,12.71,9.64
129,taksimo,20,RU,1547170681,54,56.36,114.84,-13.12,1.59
130,airai,32,TL,1547170681,83,-8.93,125.41,79.49,1.81
131,rocha,64,UY,1547170682,88,-34.48,-54.34,64.42,3.94
132,cayenne,90,GF,1547168400,78,4.94,-52.33,78.8,3.36
133,kangaba,0,ML,1547170682,59,11.94,-8.41,60.64,5.06
134,port-cartier,90,CA,1547168400,85,50.03,-66.88,21.2,10.29
135,upernavik,20,GL,1547170682,100,72.79,-56.15,-5.56,7.74
136,petatlan,5,MX,1547167680,65,17.52,-101.27,82.4,5.82
137,lubango,0,AO,1547170683,87,-14.92,13.49,56.99,1.81
138,gamba,0,CN,1547170683,48,28.28,88.52,-6.42,3.94
139,kaitangata,64,NZ,1547170683,66,-46.28,169.85,57.71,22.95
140,faanui,92,PF,1547170684,100,-16.48,-151.75,84.26,16.35
141,pisco,90,PE,1547168400,88,-13.71,-76.2,71.6,6.93
142,hualmay,56,PE,1547170684,94,-11.1,-77.61,66.35,3.71
143,kavieng,48,PG,1547170685,100,-2.57,150.8,83.63,7.63
144,georgetown,20,GY,1547168400,88,6.8,-58.16,75.2,4.7
145,khatanga,12,RU,1547170686,0,71.98,102.47,-42.6,4.94
146,aragats,0,AM,1547168400,77,40.22,44.23,6.8,1.12
147,cockburn town,12,TC,1547170686,100,21.46,-71.14,74.32,12.66
148,brae,80,GB,1547169600,93,60.4,-1.35,48.2,14.99
149,isangel,0,VU,1547170594,100,-19.55,169.27,80.03,6.73
150,senanga,0,ZM,1547170689,90,-16.1,23.3,69.59,5.39
151,qaanaaq,24,GL,1547170690,100,77.48,-69.36,-18.3,8.52
152,iracoubo,92,GF,1547170690,84,5.48,-53.21,75.89,5.5
153,vestmanna,80,FO,1547169600,100,62.16,-7.17,44.6,10.29
154,panalingaan,88,PH,1547170690,91,8.78,117.42,80.26,10.42
155,kemin,8,KG,1547170691,58,42.79,75.7,12.22,3.49
156,solnechnyy,0,RU,1547170692,72,50.72,136.64,-2.5,3.38
157,oktyabrskiy,75,RU,1547168400,92,55.61,37.97,15.8,3.38
158,kungurtug,12,RU,1547170443,61,50.6,97.53,-12.04,2.26
159,petropavlovsk-kamchatskiy,76,RU,1547168400,71,53.05,158.65,5.0,5.17
160,san lorenzo,92,HN,1547170694,78,13.43,-87.45,81.97,2.93
161,coihaique,0,CL,1547168400,50,-45.58,-72.07,53.6,5.82
162,saint george,40,GR,1547167800,80,39.45,22.34,39.2,3.15
163,tazovskiy,36,RU,1547170695,0,67.47,78.7,-29.64,3.15
164,luderitz,0,NA,1547170695,92,-26.65,15.16,57.13,3.04
165,bloemfontein,0,ZA,1547168400,58,-29.12,26.22,57.2,2.24
166,bayan,0,MN,1547170696,49,47.25,107.54,-1.87,2.93
167,kununurra,0,AU,1547168400,63,-15.77,128.74,93.2,3.36
168,kropotkin,76,RU,1547170697,66,45.43,40.58,30.26,5.06
169,east london,56,ZA,1547170697,100,-33.02,27.91,69.37,11.21
170,aginskoye,20,RU,1547170697,65,51.11,114.54,-1.87,5.73
171,clinton,1,US,1547168160,77,41.84,-90.19,21.92,8.05
172,natitingou,12,BJ,1547164800,40,10.31,1.38,73.4,2.24
173,nikolskoye,90,RU,1547168400,85,59.7,30.79,23.0,6.71
174,srednekolymsk,56,RU,1547170500,44,67.46,153.71,-27.7,2.59
175,lata,92,IN,1547170699,98,30.78,78.62,33.19,1.7
176,avarua,75,CK,1547168400,65,-21.21,-159.78,82.4,18.34
177,alice springs,0,AU,1547168400,19,-23.7,133.88,100.4,16.11
178,guane,0,CU,1547170700,84,22.2,-84.09,63.74,5.73
179,vestmannaeyjar,92,IS,1547170700,97,63.44,-20.27,42.46,15.68
180,ropczyce,90,PL,1547170200,85,50.05,21.61,19.4,6.93
181,karpathos,0,GR,1547169600,62,35.51,27.21,59.0,19.46
182,ust-tsilma,68,RU,1547170701,66,65.44,52.15,-4.48,7.74
183,kwinana,40,AU,1547168400,64,-32.25,115.77,73.4,9.17
184,teguise,40,ES,1547168400,67,29.06,-13.56,59.0,6.93
185,north bend,90,US,1547168160,83,43.41,-124.22,53.96,4.7
186,pingliang,0,CN,1547170702,57,35.54,106.68,22.39,3.71
187,puerto del rosario,8,ES,1547168400,63,28.5,-13.86,60.8,8.05
188,tandil,0,AR,1547170703,86,-37.33,-59.14,44.48,2.93
189,maloy,68,ID,1547170703,53,1.0,118.1,89.75,4.38
190,phulji,0,PK,1547170704,94,26.88,67.68,53.53,8.3
191,sobolevo,64,RU,1547170704,82,54.43,31.9,9.65,3.15
192,pacific grove,1,US,1547169600,77,36.62,-121.92,57.2,2.59
193,folldal,44,NO,1547170704,78,62.14,10.0,26.03,16.91
194,altay,68,CN,1547170705,72,47.83,88.13,7.99,1.7
195,saint anthony,90,US,1547170020,100,43.97,-111.68,32.0,6.93
196,prainha,92,BR,1547170706,100,-1.8,-53.48,73.28,4.38
197,buenavista,40,CO,1547168400,82,4.36,-75.74,71.6,1.7
198,comodoro rivadavia,0,AR,1547168400,30,-45.87,-67.48,68.0,8.05
199,kirillov,80,RU,1547170708,88,59.86,38.38,12.98,12.77
200,kahului,40,US,1547168160,56,20.89,-156.47,84.02,11.41
201,saint-pierre,88,FR,1547168400,92,48.95,4.24,32.0,2.24
202,barahona,20,DO,1547164800,78,18.21,-71.1,77.0,13.87
203,sao filipe,48,CV,1547170709,96,14.9,-24.5,72.43,16.91
204,ponta do sol,48,BR,1547170710,83,-20.63,-46.0,66.71,2.71
205,kloulklubed,90,PW,1547167800,83,7.04,134.26,82.4,14.99
206,necochea,0,AR,1547170710,100,-38.55,-58.74,46.33,4.27
207,oranjemund,0,ZA,1547170706,98,-28.55,16.43,62.03,2.37
208,neuruppin,0,DE,1547169600,94,52.92,12.81,32.0,6.93
209,de-kastri,0,RU,1547170712,100,51.48,140.77,6.23,13.78
210,codrington,64,AU,1547168400,42,-28.95,153.24,87.8,12.75
211,bethel,1,US,1547168160,76,60.79,-161.76,-13.01,10.29
212,tasiilaq,80,GL,1547167800,73,65.61,-37.64,21.2,19.46
213,belyy yar,40,RU,1547168400,77,53.6,91.39,5.0,4.47
214,clyde river,1,CA,1547168400,67,70.47,-68.59,-23.81,14.99
215,pevek,36,RU,1547170715,71,69.7,170.27,7.09,23.29
216,pandan,32,PH,1547170715,100,11.72,122.09,80.3,24.29
217,ardakan,0,IR,1547168400,22,32.31,54.02,33.8,4.7
218,inhambane,12,MZ,1547170716,99,-23.87,35.38,78.91,10.65
219,guayaramerin,56,BO,1547170716,91,-10.82,-65.36,74.77,2.04
220,abnub,0,EG,1547164800,65,27.27,31.15,44.6,9.17
221,hirara,40,JP,1547168400,83,24.8,125.28,77.0,10.29
222,khandyga,20,RU,1547170463,0,62.65,135.58,-41.38,2.59
223,mercedes,0,UY,1547170717,93,-33.25,-58.03,63.38,9.42
224,mehamn,12,NO,1547170717,83,71.03,27.85,27.74,15.46
225,bhuj,0,IN,1547170718,80,23.25,69.67,50.15,2.82
226,ahipara,36,NZ,1547170718,67,-35.17,173.16,76.43,9.42
227,potenza,90,IT,1547168100,86,40.64,15.8,26.6,3.36
228,norman wells,75,CA,1547168400,65,65.28,-126.83,-34.61,3.36
229,russell,0,AR,1547170719,98,-33.01,-68.8,42.64,2.15
230,noumea,75,NC,1547168400,66,-22.28,166.46,84.2,11.41
231,torbay,90,CA,1547168400,93,47.66,-52.73,37.4,10.29
232,trairi,80,BR,1547170720,100,-3.28,-39.27,77.92,12.21
233,victoria,75,BN,1547168400,70,5.28,115.24,84.2,8.05
234,nantucket,1,US,1547168160,55,41.28,-70.1,33.08,14.99
235,khatima,0,IN,1547170721,79,28.92,79.97,45.38,3.83
236,aktau,90,KZ,1547168400,100,43.65,51.16,28.4,4.47
237,amazar,0,RU,1547170721,64,53.86,120.88,-9.97,2.37
238,okhotsk,0,RU,1547170722,100,59.36,143.24,-8.22,9.19
239,faya,0,SA,1547168400,76,18.39,42.45,53.6,2.37
240,bratsk,40,RU,1547168400,71,56.15,101.63,6.8,13.42
241,coos bay,90,US,1547168160,83,43.37,-124.22,53.96,4.7
242,tiksi,64,RU,1547170724,0,71.64,128.87,-31.84,3.94
243,vostok,20,RU,1547170724,61,46.45,135.83,3.35,2.93
244,nishihara,40,JP,1547168400,39,35.74,139.53,50.0,14.99
245,nekhayevskiy,92,RU,1547170725,86,50.41,41.76,12.22,10.54
246,seoul,0,KR,1547168400,64,37.57,126.98,35.6,3.36
247,rodrigues alves,90,BR,1547168400,94,-7.74,-72.65,77.0,5.82
248,ranfurly,48,CA,1547170726,76,53.41,-111.68,3.76,3.49
249,boden,0,SE,1547169600,59,65.83,21.69,33.8,10.29
250,hofn,88,IS,1547170678,100,64.25,-15.21,37.19,14.45
251,hudiksvall,36,SE,1547170727,82,61.73,17.1,36.34,12.55
252,bell ville,8,AR,1547170727,92,-32.63,-62.69,56.09,5.5
253,goderich,76,CA,1547170728,85,43.74,-81.71,22.84,13.67
254,tura,0,IN,1547170500,82,25.52,90.21,59.78,3.83
255,amapa,75,HN,1547168400,88,15.09,-87.97,73.4,1.92
256,tianpeng,92,CN,1547170728,100,28.88,112.34,39.35,6.85
257,port hueneme,75,US,1547169480,80,34.15,-119.2,57.92,6.93
258,ostrovnoy,36,RU,1547170729,88,68.05,39.51,19.78,28.32
259,darasun,12,RU,1547168400,76,51.66,113.98,-9.41,3.15
260,marzuq,0,YE,1547170730,68,14.4,46.47,37.42,2.37
261,wundanyi,12,KE,1547170730,91,-3.4,38.37,65.45,2.59
262,caluquembe,0,AO,1547170731,88,-13.78,14.68,55.28,2.37
263,saint-francois,90,FR,1547168400,86,46.42,3.91,30.2,3.36
264,oranjestad,20,AW,1547168400,78,12.52,-70.03,78.8,8.05
265,pangoa,92,PE,1547170732,99,-12.12,-73.0,65.63,1.7
266,okitipupa,20,NG,1547170732,93,6.5,4.78,75.22,2.37
267,dikson,24,RU,1547170733,100,73.51,80.55,-19.02,5.73
268,frontera,75,MX,1547167260,88,18.53,-92.64,69.8,5.17
269,pangkalanbuun,44,ID,1547170733,100,-2.68,111.62,82.01,4.16
270,bhainsa,0,IN,1547170734,83,26.95,76.9,48.22,2.82
271,port hedland,0,AU,1547168400,66,-20.31,118.58,91.4,9.17
272,beloha,92,MG,1547170734,97,-25.17,45.06,73.73,11.77
273,deputatskiy,48,RU,1547170734,0,69.3,139.9,-35.35,2.82
274,esperance,20,TT,1547168400,94,10.24,-61.45,75.2,3.36
275,kaputa,56,ZM,1547170735,99,-8.47,29.66,61.85,2.37
276,umm lajj,0,SA,1547170735,100,25.02,37.27,58.03,8.41
277,lorengau,0,PG,1547170735,92,-2.02,147.27,85.93,9.08
278,gravdal,24,NO,1547169600,93,59.79,5.78,46.4,18.34
279,imbituba,20,BR,1547168400,78,-28.24,-48.67,77.0,5.82
280,pangnirtung,0,CA,1547170736,42,66.15,-65.72,-26.85,3.27
281,rosarito,75,CO,1547168400,88,4.91,-75.23,71.6,3.36
282,rio grande,32,BR,1547170584,100,-32.03,-52.1,69.01,6.96
283,west bay,40,GB,1547169600,93,50.71,-2.76,42.8,5.82
284,dingle,32,PH,1547170738,71,11.0,122.67,81.61,17.25
285,naze,8,NG,1547168400,88,5.43,7.07,73.4,9.19
286,veraval,90,FR,1547168400,93,49.65,0.71,42.8,3.36
287,katherine,0,AU,1547168400,66,-14.47,132.26,87.8,10.29
288,george,20,NG,1547168400,88,6.63,3.35,80.6,6.29
289,walvis bay,0,NA,1547168400,82,-22.95,14.51,57.2,4.7
290,asuncion,75,PY,1547168400,78,-25.3,-57.63,78.8,5.82
291,marti,75,CU,1547167800,83,21.15,-77.45,69.8,5.82
292,sao joao da barra,20,BR,1547170741,97,-21.64,-41.05,78.95,12.21
293,mount isa,0,AU,1547168400,34,-20.73,139.49,95.0,10.29
294,kintampo,24,GH,1547170742,92,8.05,-1.73,70.54,8.75
295,tuatapere,88,NZ,1547170742,100,-46.13,167.69,53.26,15.9
296,chimoio,76,MZ,1547170743,98,-19.11,33.48,73.06,2.93
297,the valley,40,AI,1547168400,73,18.22,-63.06,77.0,6.93
298,laguna,75,MX,1547167260,52,27.52,-110.01,69.8,1.92
299,chachapoyas,68,PE,1547170743,97,-6.23,-77.87,58.25,0.69
300,te anau,44,NZ,1547170744,49,-45.41,167.72,58.93,9.19
301,manono,32,CD,1547170744,96,-7.3,27.4,67.61,2.82
302,alta floresta,56,BR,1547170744,95,-9.87,-56.08,73.91,2.15
303,shaowu,92,CN,1547170745,100,27.34,117.49,50.47,2.15
304,waipawa,8,NZ,1547170745,42,-39.94,176.59,75.98,15.68
305,komsomolskiy,24,RU,1547170483,67,67.55,63.78,-9.61,14.0
306,houma,24,CN,1547170746,78,35.63,111.36,28.78,3.15
307,santa rosa,0,AR,1547170470,59,-36.62,-64.29,55.28,9.86
308,seydi,8,NE,1547170748,66,13.34,7.75,56.0,2.93
309,la ronge,90,CA,1547168400,77,55.1,-105.3,3.2,8.05
310,hargeysa,0,SO,1547170748,74,9.56,44.06,42.14,6.4
311,hobyo,76,SO,1547170749,83,5.35,48.53,77.02,19.48
312,nipawin,90,CA,1547169060,84,53.36,-104.02,6.8,11.41
313,yuanping,0,CN,1547170750,63,38.72,112.71,22.16,3.27
314,salamanca,0,ES,1547168400,79,40.97,-5.66,24.8,5.82
315,sandpoint,90,US,1547169000,100,48.28,-116.55,37.4,2.26
316,coahuayana,0,MX,1547170751,73,18.62,-100.35,61.18,1.92
317,kudahuvadhoo,56,MV,1547170751,100,2.67,72.89,78.37,7.29
318,jizan,20,SA,1547164800,78,16.89,42.56,78.8,4.38
319,caravelas,68,BR,1547170751,100,-17.73,-39.27,79.85,10.2
320,kirakira,44,SB,1547170752,100,-10.46,161.92,83.59,7.29
321,port-gentil,92,GA,1547170624,100,-0.72,8.78,78.86,4.61
322,katobu,76,ID,1547170752,86,-4.94,122.53,85.25,2.59
323,kawalu,44,ID,1547170753,83,-7.38,108.21,77.56,0.58
324,sechura,64,PE,1547170754,88,-5.56,-80.82,73.51,6.96
325,porto novo,40,BR,1547168400,83,-23.68,-45.44,75.2,3.15
326,lamar,1,US,1547167980,35,38.09,-102.62,44.96,6.93
327,dukat,68,RS,1547170754,92,42.44,22.31,20.59,0.36
328,vila franca do campo,75,PT,1547168400,87,37.72,-25.43,57.2,19.46
329,lavra,0,PT,1547168400,45,41.26,-8.72,48.2,14.99
330,tocache,92,PE,1547170755,96,-8.19,-76.51,58.34,1.81
331,rosignol,12,GY,1547170755,83,6.28,-57.53,76.7,6.29
332,lac du bonnet,92,CA,1547170756,84,50.25,-96.06,12.49,10.65
333,xiamen,90,CN,1547168400,88,24.46,118.07,64.4,2.24
334,yar-sale,8,RU,1547170756,100,66.83,70.83,-23.34,3.94
335,katsuura,75,JP,1547168400,50,33.93,134.5,51.8,10.29
336,iberia,68,PE,1547170757,100,-11.41,-69.49,74.99,1.36
337,georgiyevka,92,RU,1547170757,92,52.25,40.45,18.74,11.54
338,inirida,20,CO,1547170758,92,3.87,-67.92,74.32,2.04
339,santiago del estero,88,AR,1547170758,71,-27.8,-64.26,67.21,17.36
340,el tocuyo,40,VE,1547164800,73,9.79,-69.8,75.2,6.93
341,birao,0,CF,1547170759,62,10.3,22.78,58.25,8.63
342,haines junction,8,CA,1547170759,0,60.75,-137.51,-43.27,2.15
343,yeppoon,75,AU,1547168400,78,-23.13,150.74,78.8,5.82
344,bandarbeyla,92,SO,1547170761,100,9.49,50.81,75.71,21.16
345,marshall,1,US,1547169300,79,39.39,-87.69,24.98,2.82
346,yako,0,BF,1547170762,40,12.96,-2.26,59.6,5.39
347,lavrentiya,0,RU,1547170762,82,65.58,-170.99,-8.35,14.79
348,broken hill,0,AU,1547168400,24,-31.97,141.45,93.2,8.05
349,san cristobal,75,EC,1547168400,100,-0.39,-78.55,55.4,4.7
350,glendive,1,US,1547169300,78,47.11,-104.71,35.6,6.93
351,berezovyy,0,RU,1547170764,52,51.67,135.7,-4.8,3.38
352,honiara,88,SB,1547170764,92,-9.43,159.96,79.81,2.71
353,sarab,0,IR,1547170764,66,38.61,44.99,4.7,2.59
354,darhan,12,MN,1547170765,56,49.49,105.92,-3.0,2.93
355,mmathubudukwane,20,BW,1547168400,83,-24.61,26.43,69.8,3.36
356,mezhdurechensk,68,RU,1547170766,76,53.69,88.07,4.21,3.38
357,abbeville,90,FR,1547168400,93,50.11,1.83,41.0,3.36
358,linhares,0,BR,1547170766,94,-19.38,-40.06,73.19,3.27
359,nanortalik,32,GL,1547170766,84,60.14,-45.24,27.97,5.73
360,mombasa,75,KE,1547164800,88,-4.05,39.67,78.8,4.7
361,provideniya,0,RU,1547168400,64,64.42,-173.23,-0.41,6.71
362,kamennogorsk,90,RU,1547169600,92,60.95,29.13,26.6,12.75
363,vardo,90,US,1547169600,50,39.62,-77.74,30.2,21.92
364,hambantota,40,LK,1547165400,100,6.12,81.12,75.2,3.36
365,peace river,40,CA,1547168400,77,56.23,-117.29,5.0,5.82
366,aleksandrovskiy zavod,0,RU,1547170769,65,50.92,117.94,1.1,2.82
367,miraflores,92,CO,1547170770,95,5.2,-73.14,53.48,0.92
368,sheopur,0,IN,1547170770,79,25.67,76.7,47.32,2.71
369,ilulissat,0,GL,1547167800,53,69.22,-51.1,-5.81,8.05
370,aripuana,48,BR,1547170771,93,-9.17,-60.63,74.68,2.71
371,antalaha,92,MG,1547170771,96,-14.9,50.28,76.39,0.92
372,havre-saint-pierre,75,CA,1547168820,92,50.23,-63.6,28.4,17.22
373,prince rupert,90,CA,1547168400,87,54.32,-130.32,44.6,11.41
374,kotido,0,UG,1547170772,61,3.01,34.12,61.81,7.07
375,kitui,44,KE,1547170773,73,-1.37,38.02,61.04,4.27
376,wanaka,0,NZ,1547170773,27,-44.7,169.14,66.53,4.94
377,bilma,0,NE,1547170774,69,18.69,12.92,41.6,2.48
378,vanimo,0,PG,1547170774,100,-2.67,141.3,81.97,9.42
379,maceio,20,BR,1547168400,83,-9.67,-35.74,75.2,2.24
380,bagdarin,24,RU,1547170774,57,54.44,113.59,-8.89,2.48
381,tucupita,36,VE,1547170775,74,9.06,-62.05,78.05,8.3
382,tautira,75,PF,1547168400,74,-17.73,-149.15,80.6,8.05
383,aksum,0,ET,1547170775,74,14.12,38.72,32.74,2.59
384,canutama,48,BR,1547170776,94,-6.53,-64.38,73.19,2.82
385,makakilo city,1,US,1547168220,64,21.35,-158.09,80.06,12.75
386,san vicente,0,SV,1547167800,78,13.64,-88.78,80.6,3.36
387,datong,0,CN,1547170778,61,40.09,113.3,20.36,3.94
388,washougal,1,US,1547167980,70,45.58,-122.35,53.06,21.92
389,savannah bight,90,HN,1547164800,94,16.45,-85.85,73.4,2.24
390,clive,1,US,1547170500,67,41.61,-93.78,30.02,11.41
391,wanning,90,AT,1547169600,74,48.64,13.53,28.4,4.7
392,adrar,0,DZ,1547168400,24,27.87,-0.29,46.4,8.05
393,kommunar,90,RU,1547168400,85,59.62,30.39,23.0,6.71
394,camacha,75,PT,1547168400,58,33.08,-16.33,59.0,3.36
395,singaraja,32,ID,1547170784,82,-8.11,115.08,82.69,1.59
396,juneau,90,US,1547168640,92,58.3,-134.42,26.6,2.93
397,matagami,0,NG,1547170784,50,9.67,8.4,58.66,5.95
398,uspenskaya,76,RU,1547170785,66,45.78,41.07,30.26,5.06
399,saint-georges,76,CA,1547170786,64,46.12,-70.67,19.69,10.65
400,ukiah,1,US,1547168160,68,39.15,-123.21,53.06,4.7
401,kankon,0,IN,1547164800,82,15.02,74.02,68.0,2.24
402,lompoc,1,US,1547169300,86,34.64,-120.46,57.02,9.17
403,muros,0,ES,1547168400,74,42.77,-9.06,41.0,5.82
404,amga,44,RU,1547170788,33,60.89,131.98,-22.84,2.93
405,kamenka,80,RU,1547170788,81,53.19,44.05,8.03,10.09
406,bedele,0,ET,1547170789,76,8.46,36.35,40.21,2.48
407,lagoa,0,PT,1547168400,61,37.14,-8.45,50.0,9.17
408,goure,0,NE,1547170790,46,13.98,10.27,56.36,6.4
409,geraldton,90,CA,1547168400,64,49.72,-86.95,-4.01,2.24
410,bathsheba,20,BB,1547168400,74,13.22,-59.52,78.8,16.11
411,shimoda,75,JP,1547168400,53,34.7,138.93,51.8,11.41
412,tual,20,ID,1547170792,100,-5.67,132.75,81.38,8.41
413,opuwo,0,NA,1547170792,57,-18.06,13.84,55.01,2.71
414,brumado,32,BR,1547170793,92,-14.2,-41.67,68.96,6.73
415,hays,1,US,1547168160,69,38.88,-99.33,37.94,10.29
416,manokwari,12,ID,1547170793,100,-0.87,134.08,81.83,4.5
417,eyl,100,SO,1547170794,100,7.98,49.82,73.46,15.68
418,panshi,0,CN,1547170794,58,42.94,126.05,24.05,4.61
419,guanambi,44,BR,1547170794,84,-14.22,-42.78,70.63,9.42
420,tehachapi,1,US,1547168400,41,35.13,-118.45,57.2,2.71
421,ambon,90,FR,1547168400,86,47.55,-2.56,39.2,5.82
422,deniliquin,0,AU,1547170796,46,-35.53,144.96,89.93,6.17
423,aksarka,32,RU,1547170796,0,66.56,67.8,-28.02,8.3
424,port hawkesbury,90,CA,1547168400,92,45.62,-61.36,30.2,8.05
425,edd,0,ER,1547170507,87,13.93,41.69,56.23,1.14
426,papa,20,NG,1547168400,88,7.08,3.4,80.6,3.94
427,hayden,1,US,1547168280,92,47.77,-116.79,41.0,2.15
428,gizo,0,IL,1547169600,75,31.8,34.94,44.6,2.24
429,kruisfontein,56,ZA,1547170798,94,-34.0,24.73,62.66,4.5
430,broome,80,GB,1547170020,93,52.47,1.45,46.4,6.93
431,muisne,88,EC,1547170703,93,0.61,-80.02,72.97,2.59
432,moranbah,76,AU,1547170799,87,-22.0,148.04,79.94,11.99
433,kargopol,76,RU,1547170799,83,61.51,38.95,17.08,16.02
434,rosita,0,NI,1547170800,86,13.92,-84.4,70.49,3.38
435,constitucion,20,MX,1547167920,27,23.99,-104.67,64.4,14.99
436,ahuimanu,90,US,1547168220,79,21.44,-157.84,80.06,6.93
437,barauna,64,BR,1547170803,86,-14.07,-42.49,69.41,11.1
438,vila velha,0,BR,1547168400,88,-3.71,-38.6,78.8,19.46
439,avera,1,US,1547169300,72,33.19,-82.53,37.94,3.36
440,blonie,75,PL,1547170200,85,52.2,20.62,14.0,3.36
441,asyut,8,EG,1547170805,79,27.18,31.19,31.48,2.71
442,killam,48,CA,1547170805,79,52.79,-111.86,5.15,3.27
443,urengoy,36,RU,1547170806,34,65.96,78.37,-22.89,7.85
444,hohhot,0,CN,1547168400,71,40.81,111.65,8.6,2.24
445,ulagan,68,RU,1547170806,86,50.63,87.96,-2.82,2.37
446,maroantsetra,48,MG,1547170806,100,-15.43,49.74,74.32,2.71
447,yangcun,92,CN,1547170806,99,29.98,118.17,43.81,1.92
448,grindavik,75,IS,1547168400,100,63.84,-22.43,41.0,16.11
449,sisimiut,8,GL,1547170807,100,66.94,-53.67,-19.33,2.59
450,saint-doulchard,0,FR,1547168400,92,47.1,2.37,32.0,3.94
451,ray,1,US,1547169300,100,48.34,-103.17,28.4,5.17
452,bongandanga,20,CD,1547170809,93,1.51,21.07,71.3,2.37
453,argir,56,FO,1547169600,100,62.0,-6.77,44.6,10.29
454,toora-khem,76,RU,1547170810,62,52.47,96.11,-6.24,2.37
455,carbonia,0,IT,1547169600,80,39.17,8.53,35.6,8.05
456,bassano,0,CA,1547170810,62,50.79,-112.47,2.32,2.82
457,san luis,0,AR,1547170811,48,-33.3,-66.34,60.23,12.1
458,ust-ilimsk,56,RU,1547170811,62,57.96,102.73,9.11,6.51
459,marsala,20,IT,1547168100,93,37.8,12.44,42.8,1.12
460,elat,68,CM,1547170812,100,2.91,11.16,68.24,2.37
461,somerset,1,US,1547169300,63,37.09,-84.6,26.6,3.36
462,beidao,0,CN,1547170813,67,34.57,105.89,22.12,3.38
463,pataskala,90,US,1547169360,66,40.0,-82.67,26.96,6.93
464,tilichiki,44,RU,1547170813,82,60.47,166.1,22.34,9.42
465,laurel,75,US,1547167980,54,45.67,-108.77,39.92,17.22
466,mocuba,44,MZ,1547170818,88,-16.84,36.99,75.31,5.5
467,xining,0,CN,1547170818,29,36.62,101.77,14.24,3.15
468,morrope,75,PE,1547168400,29,-6.54,-80.02,66.2,10.29
469,virginia beach,1,US,1547169600,37,36.85,-75.98,37.94,13.87
470,chicama,75,PE,1547168400,88,-7.84,-79.15,73.4,9.17
471,tala,40,MX,1547167320,37,20.65,-103.7,68.0,2.15
472,fare,80,PF,1547170821,100,-16.7,-151.02,82.28,12.44
473,sibu,75,MY,1547168400,88,2.29,111.83,80.6,3.36
474,tacoronte,20,ES,1547168400,62,28.48,-16.41,59.0,8.05
475,shenjiamen,92,CN,1547170822,100,29.96,122.3,54.16,11.21
476,san rafael,0,AR,1547170823,53,-34.61,-68.33,51.19,5.73
477,kiama,75,AU,1547168400,73,-34.67,150.86,77.0,3.36
478,homer,1,US,1547167980,58,59.64,-151.54,19.94,8.63
479,atar,20,MR,1547170824,37,20.52,-13.05,43.18,3.15
480,qaqortoq,76,GL,1547170824,90,60.72,-46.03,26.53,4.27
481,mabini,90,PH,1547168400,100,7.31,125.85,77.0,6.93
482,narsaq,32,GL,1547170825,59,60.91,-46.05,13.61,3.83
483,bani walid,56,LY,1547170825,61,31.76,14.0,41.29,7.96
484,demidov,56,RU,1547170825,77,55.27,31.52,9.11,3.04
485,grand gaube,75,MU,1547168400,88,-20.01,57.66,77.0,16.11
486,bonnyville,90,CA,1547168400,78,54.27,-110.74,8.6,3.04
487,peleduy,76,RU,1547170827,80,59.63,112.75,17.21,5.73
488,buchanan,40,LR,1547166600,94,5.88,-10.05,77.0,7.96
489,lazaro cardenas,75,MX,1547167260,45,28.39,-105.62,66.2,6.93
490,nago,0,IT,1547169600,74,45.88,10.89,33.8,4.7
491,san quintin,0,PH,1547170829,58,17.54,120.52,82.19,4.05
492,carnduff,0,CA,1547170829,48,49.17,-101.8,5.02,4.61
493,goulburn,48,AU,1547170829,81,-34.75,149.72,78.37,4.16
494,san ramon,48,NI,1547170830,92,12.92,-85.84,65.45,2.04
495,truth or consequences,90,US,1547167980,95,33.13,-107.25,44.06,3.71
496,blacklick estates,90,US,1547169360,66,39.91,-82.86,26.96,6.93
497,fairbanks,1,US,1547168280,74,64.84,-147.72,-25.07,3.15
498,kingaroy,44,AU,1547170832,59,-26.54,151.84,80.3,14.67
499,yerbogachen,0,RU,1547170833,55,61.28,108.01,-1.33,7.63
500,tombouctou,0,ML,1547170834,55,16.77,-3.01,50.51,3.38
501,bernal,0,AR,1547168400,68,-34.72,-58.3,64.4,9.17
502,filadelfia,80,PY,1547170836,87,-22.35,-60.04,76.25,7.29
503,taft,80,PH,1547170836,88,11.9,125.42,80.89,17.02
504,hami,76,CN,1547170837,69,42.84,93.51,10.24,4.05
505,nichinan,75,JP,1547168400,57,31.65,131.31,51.8,5.82
506,hamilton,75,CA,1547168940,72,43.26,-79.87,19.4,10.29
507,contamana,48,PE,1547170841,95,-7.35,-75.01,74.54,2.04
508,barentu,0,ER,1547170842,86,15.11,37.59,47.45,4.27
509,sibolga,36,ID,1547170842,87,1.74,98.78,77.24,1.36
510,flinders,75,AU,1547168400,73,-34.58,150.85,77.0,3.36
511,hauge,36,NO,1547169600,65,59.25,10.99,44.6,9.17
512,mandalgovi,0,MN,1547170845,56,45.76,106.27,-0.43,5.17
513,svetlaya,0,RU,1547170846,100,46.54,138.33,18.83,9.42
514,sokoni,88,CD,1547170847,98,-12.89,28.78,64.28,4.5
515,voineasa,90,RO,1547168400,100,45.42,23.96,26.6,3.36
516,anadyr,90,RU,1547168400,78,64.73,177.51,14.0,35.79
517,izvoarele,92,RO,1547170848,91,45.55,27.77,25.18,18.81
518,vao,88,EE,1547170848,90,59.1,26.19,22.66,15.68
519,aleksandrovka,92,RU,1547170849,85,46.65,38.4,36.52,17.69
520,yola,0,NG,1547170850,74,9.26,12.45,57.71,1.7
521,cabedelo,20,BR,1547168400,88,-6.97,-34.84,77.0,4.7
522,scarborough,68,GB,1547167800,81,54.28,-0.41,44.6,5.82
523,honningsvag,80,NO,1547170852,100,70.98,25.97,32.69,20.15
524,evensk,88,RU,1547170852,97,61.92,159.24,23.74,11.77
525,urdoma,68,RU,1547170854,81,61.74,48.55,16.54,7.96
526,gladstone,40,AU,1547168400,61,-23.84,151.26,80.6,13.87
527,agua dulce,75,MX,1547168160,69,18.14,-94.15,75.2,11.41
528,fallon,1,US,1547168160,78,46.84,-105.12,32.0,6.93
529,samarai,0,PG,1547170857,99,-10.62,150.67,84.67,12.21
530,gonzalez,88,CO,1547170858,71,8.39,-73.38,70.4,1.7
531,nelson bay,0,AU,1547168400,78,-32.72,152.14,77.0,11.41
532,kathmandu,40,NP,1547167800,100,27.71,85.32,41.0,3.36
533,sampit,80,ID,1547170858,100,-2.54,112.95,81.61,5.73
534,pinheiro,92,BR,1547170859,98,-2.53,-45.09,71.89,2.71
535,zhigansk,68,RU,1547170860,0,66.77,123.37,-32.97,5.73
536,sideropolis,32,BR,1547170860,97,-28.6,-49.42,73.24,2.59
537,wahiawa,90,US,1547168220,69,21.5,-158.02,80.06,8.05
538,mpika,88,ZM,1547170862,98,-11.84,31.4,62.66,3.6
539,horsham,0,AU,1547170862,64,-36.71,142.2,79.18,6.51
540,itupiranga,75,BR,1547168400,94,-5.13,-49.33,75.2,2.24
541,bulgan,32,MN,1547170864,45,48.81,103.53,0.79,2.71
542,tiznit,0,MA,1547170864,97,29.7,-9.73,44.84,3.94
543,santa marta,20,CO,1547168400,65,11.24,-74.21,78.8,18.34
544,catio,20,GW,1547170865,88,11.28,-15.25,66.94,2.71
545,leticia,40,CO,1547168400,100,-4.21,-69.94,77.0,4.16
546,cherepovets,80,RU,1547170866,87,59.13,37.92,11.86,11.77
547,debno,88,PL,1547170866,91,52.74,14.7,26.62,8.19
548,khorixas,0,NA,1547170867,85,-20.37,14.96,47.0,2.59
549,areosa,0,PT,1547168400,45,41.72,-8.86,48.2,14.99
550,kautokeino,12,NO,1547170867,78,69.01,23.04,26.71,11.88
551,mogadishu,0,SO,1547170868,100,2.04,45.34,78.5,23.29
552,ternate,75,PH,1547168400,65,14.29,120.72,82.4,9.17
